,City,Lat,Lng,Max Temp,Humidity,Cloudiness,Wind Speed,Country,Date
0,Chui,-33.6971,-53.4616,58.28,96,24,4.76,UY,1658888781
1,Mlandizi,-6.7,38.7333,66.25,97,10,3.67,TZ,1658888781
2,Port Alfred,-33.5906,26.891,61.18,65,44,5.01,ZA,1658888781
3,Busselton,-33.65,115.3333,55.35,73,100,8.37,AU,1658888782
4,Takoradze,4.8845,-1.7554,74.59,91,93,9.37,GH,1658888782
5,Barrow,71.2906,-156.7887,35.62,93,100,12.66,US,1658888544
6,Poronaysk,49.2167,143.1167,62.98,88,100,8.46,RU,1658888783
7,East London,-33.0153,27.9116,64.9,46,30,8.52,ZA,1658888783
8,Palpa,-14.5336,-75.1856,65.71,65,66,1.7,PE,1658888783
9,Albany,42.6001,-73.9662,65.57,76,0,4.18,US,1658888622
10,Lagoa,39.05,-27.9833,72.68,89,10,11.68,PT,1658888784
11,Auki,-8.7676,160.7034,86.4,60,63,2.71,SB,1658888784
12,Cherskiy,68.75,161.3,53.91,44,26,8.41,RU,1658888785
13,Tomatlán,19.9333,-105.25,79.54,81,100,0.89,MX,1658888696
14,Stephenville,32.2207,-98.2023,95.81,29,40,9.22,US,1658888785
15,Lata,40.1629,-8.3327,54.9,97,12,1.83,PT,1658888786
16,Flinders,-34.5833,150.8552,64.18,47,1,10.0,AU,1658888786
17,Severo-Kuril'sk,50.6789,156.125,55.02,82,98,5.19,RU,1658888787
18,Puerto Ayora,-0.7393,-90.3518,69.55,93,100,4.0,EC,1658888787
19,Kariba,-16.5167,28.8,57.31,70,6,4.21,ZW,1658888787
20,Dikson,73.5069,80.5464,43.34,98,100,23.15,RU,1658888689
21,Fortuna,40.5982,-124.1573,61.93,82,34,5.01,US,1658888788
22,Vao,-22.6667,167.4833,68.81,65,0,9.24,NC,1658888789
23,Mataura,-46.1927,168.8643,48.47,96,100,5.41,NZ,1658888789
24,Rikitea,-23.1203,-134.9692,74.73,74,78,8.55,PF,1658888789
25,Atuona,-9.8,-139.0333,77.13,76,15,16.33,PF,1658888790
26,Geraldton,-28.7667,114.6,59.41,67,0,14.97,AU,1658888790
27,Jamestown,42.097,-79.2353,64.71,53,85,0.72,US,1658888630
28,Port Elizabeth,-33.918,25.5701,59.31,81,0,18.41,ZA,1658888671
29,Punta Arenas,-53.15,-70.9167,32.11,86,0,12.66,CL,1658888656
30,Khuzdar,27.7384,66.6434,73.99,82,100,2.64,PK,1658888791
31,Khatanga,71.9667,102.5,76.68,39,100,12.5,RU,1658888791
32,Vaini,-21.2,-175.2,74.05,72,100,12.62,TO,1658888792
33,New Norfolk,-42.7826,147.0587,54.91,71,94,3.0,AU,1658888792
34,Hilo,19.7297,-155.09,88.29,84,75,6.91,US,1658888515
35,Sakakah,29.9697,40.2064,80.17,15,6,4.5,SA,1658888793
36,Vila Velha,-20.3297,-40.2925,68.95,93,40,0.0,BR,1658888793
37,Parakou,9.3372,2.6303,70.43,98,100,4.74,BJ,1658888794
38,Nanortalik,60.1432,-45.2371,43.39,92,62,1.63,GL,1658888794
39,Tamiahua,21.2667,-97.45,80.78,81,98,6.73,MX,1658888795
40,Bangangté,5.1409,10.5198,60.51,99,99,4.16,CM,1658888795
41,Grand Gaube,-20.0064,57.6608,67.37,76,10,3.0,MU,1658888796
42,Puerto Nariño,-3.7703,-70.3831,72.3,97,6,0.4,CO,1658888796
43,Hobart,-42.8794,147.3294,55.26,65,75,10.36,AU,1658888796
44,Klaksvík,62.2266,-6.589,52.72,86,99,7.63,FO,1658888797
45,Tuktoyaktuk,69.4541,-133.0374,64.4,52,20,25.32,CA,1658888797
46,Guarapari,-20.6667,-40.4975,68.9,87,5,2.91,BR,1658888798
47,Hermanus,-34.4187,19.2345,54.43,85,46,1.79,ZA,1658888798
48,Bilma,18.6853,12.9164,87.69,12,49,5.37,NE,1658888798
49,Esperance,-33.8667,121.9,58.84,74,100,3.69,AU,1658888799
50,Port Blair,11.6667,92.75,84.24,79,75,6.91,IN,1658888799
51,Vanavara,60.34,102.2797,56.89,97,100,8.9,RU,1658888800
52,Dalby,-27.1833,151.2667,58.98,35,0,5.99,AU,1658888800
53,Ostrovnoy,68.0531,39.5131,61.32,74,94,19.01,RU,1658888800
54,Sidi Ali,36.0998,0.4206,74.88,74,0,4.7,DZ,1658888801
55,Kjøllefjord,70.9457,27.3465,53.65,95,100,5.75,NO,1658888801
56,Orcopampa,-15.2661,-72.3417,46.8,51,50,2.26,PE,1658888801
57,Oranjemund,-28.55,16.4333,52.84,87,9,4.92,NA,1658888802
58,Cockburn Town,21.4612,-71.1419,82.13,80,0,17.43,TC,1658888802
59,Hithadhoo,-0.6,73.0833,75.76,93,100,13.35,MV,1658888542
60,Oussouye,12.485,-16.5469,77.18,86,62,5.06,SN,1658888803
61,Ushuaia,-54.8,-68.3,33.46,64,0,8.05,AR,1658888629
62,Tautira,-17.7333,-149.15,76.15,82,74,12.44,PF,1658888804
63,Fomboni,-12.28,43.7425,75.92,75,0,13.96,KM,1658888804
64,Bredasdorp,-34.5322,20.0403,49.12,94,23,5.64,ZA,1658888804
65,Sinnamary,5.3833,-52.95,78.73,82,20,4.79,GF,1658888617
66,Ponta do Sol,32.6667,-17.1,74.03,60,1,6.15,PT,1658888805
67,Bethel,41.3712,-73.414,71.65,74,0,3.44,US,1658888806
68,Bulungu,-4.55,18.6,74.73,57,100,1.7,CD,1658888806
69,Saint George,37.1041,-113.5841,94.62,34,40,13.0,US,1658888524
70,Carnarvon,-24.8667,113.6333,68.07,34,100,5.37,AU,1658888807
71,Bluff,-46.6,168.3333,48.79,91,100,20.31,NZ,1658888807
72,Sioux Lookout,50.1001,-91.917,60.87,82,40,3.44,CA,1658888808
73,Cape Town,-33.9258,18.4232,52.12,87,20,3.44,ZA,1658888514
74,Ribeira Grande,38.5167,-28.7,74.14,85,38,8.72,PT,1658888770
75,Inuvik,68.3499,-133.7218,68.76,32,20,14.97,CA,1658888808
76,Narsaq,60.9167,-46.05,52.02,90,24,1.23,GL,1658888809
77,Bairiki Village,1.3292,172.9752,86.0,70,40,14.97,KI,1658888809
78,San Patricio,28.017,-97.5169,86.09,64,100,13.87,US,1658888810
79,Codrington,-38.2667,141.9667,56.05,79,100,14.56,AU,1658888810
80,Itarema,-2.9248,-39.9167,77.74,76,82,13.11,BR,1658888811
81,Port-Gentil,-0.7193,8.7815,73.92,82,98,12.64,GA,1658888811
82,Grafton,42.207,-71.6856,68.58,79,0,9.22,US,1658888811
83,Natal,-5.795,-35.2094,75.42,83,0,8.05,BR,1658888742
84,Sawākin,19.1059,37.3321,93.16,51,100,5.64,SD,1658888812
85,Lima,-12.0432,-77.0282,59.25,82,100,11.5,PE,1658888415
86,Airai,-8.9266,125.4092,69.71,44,60,5.32,TL,1658888813
87,Illapel,-31.6308,-71.1653,51.94,89,4,0.94,CL,1658888813
88,Gamba,-2.65,10.0,68.54,94,23,4.7,GA,1658888814
89,San Angelo,31.4638,-100.437,95.22,25,0,6.91,US,1658888564
90,Kapoeta,4.7717,33.5903,75.0,53,100,8.39,SS,1658888814
91,Jizan,17.3333,42.6667,88.74,66,100,3.94,SA,1658888815
92,São Filipe,14.8961,-24.4956,77.04,86,45,3.33,CV,1658888815
93,Nome,64.5011,-165.4064,48.27,71,40,17.27,US,1658888815
94,Castro,-24.7911,-50.0119,54.55,81,2,4.23,BR,1658888613
95,Penzance,50.1186,-5.5371,52.48,69,100,7.76,GB,1658888546
96,Labuhan,-6.8844,112.2051,81.66,65,18,7.47,ID,1658888816
97,Los Llanos de Aridane,28.6585,-17.9182,73.15,57,0,10.36,ES,1658888816
98,Nikolskoye,59.7035,30.7861,65.8,90,100,4.9,RU,1658888817
99,Zaysan,47.4667,84.8667,77.81,22,98,4.63,KZ,1658888817
100,Gaoyou,32.7858,119.4278,83.41,72,0,2.37,CN,1658888818
101,Avera,33.194,-82.5271,81.91,65,99,5.1,US,1658888818
102,Taganak,6.0833,118.3,87.94,79,38,7.54,PH,1658888818
103,Mocuba,-16.8392,36.9856,58.42,94,30,3.09,MZ,1658888819
104,Buy,58.4786,41.53,63.84,95,89,4.56,RU,1658888819
105,Mersing,2.4312,103.8405,85.91,74,40,9.22,MY,1658888820
106,Mahibadhoo,3.7833,72.9667,82.29,75,68,16.55,MV,1658888820
107,Pevek,69.7008,170.3133,34.88,86,100,12.28,RU,1658888821
108,Redlands,34.0556,-117.1825,92.53,37,0,11.5,US,1658888821
109,Kaeo,-35.1,173.7833,64.33,74,45,10.94,NZ,1658888822
110,Acaraú,-2.8856,-40.12,77.13,78,61,12.59,BR,1658888822
111,Wanaka,-44.7,169.15,40.62,99,100,1.39,NZ,1658888816
112,Kiruna,67.8557,20.2251,56.32,100,100,3.44,SE,1658888823
113,Yerbogachën,61.2767,108.0108,67.48,63,61,9.06,RU,1658888823
114,Yellowknife,62.456,-114.3525,68.56,52,20,8.05,CA,1658888823
115,Longkou,37.6508,120.3286,80.44,72,28,6.29,CN,1658888824
116,São João da Barra,-21.6403,-41.0511,70.03,84,8,8.97,BR,1658888824
117,Saint Paul Harbor,57.79,-152.4072,53.11,71,0,6.91,US,1658888825
118,Hofn,64.2539,-15.2082,50.59,89,100,2.35,IS,1658888825
119,Iqaluit,63.7506,-68.5145,46.13,81,20,4.61,CA,1658888577
120,Lebu,-37.6167,-73.65,51.03,85,66,14.12,CL,1658888826
121,Thompson,55.7435,-97.8558,59.16,77,75,9.22,CA,1658888786
122,Qaanaaq,77.484,-69.3632,39.54,71,40,0.81,GL,1658888827
123,San Rafael,-34.6177,-68.3301,47.7,82,96,7.05,AR,1658888542
124,Cidreira,-30.1811,-50.2056,61.34,93,14,14.61,BR,1658888663
125,Yüksekova,37.5736,44.2872,47.95,71,20,0.0,TR,1658888828
126,Longyearbyen,78.2186,15.6401,48.04,76,75,3.44,SJ,1658888828
127,San Ciro de Acosta,21.6333,-99.8167,73.17,80,90,10.38,MX,1658888828
128,Esna,25.2934,32.554,85.41,17,0,7.16,EG,1658888698
129,Avarua,-21.2078,-159.775,73.45,60,20,18.41,CK,1658888829
130,Port Hardy,50.6996,-127.4199,69.98,73,20,4.61,CA,1658888830
131,Guayaramerín,-10.8368,-65.3614,75.22,48,60,1.7,BO,1658888830
132,Borba,-4.3878,-59.5939,77.38,60,99,3.29,BR,1658888831
133,Arraial do Cabo,-22.9661,-42.0278,70.3,86,0,16.28,BR,1658888831
134,Nishihara,26.1842,127.7558,89.26,72,40,12.66,JP,1658888832
135,Griffith,41.5284,-87.4237,75.88,85,75,5.75,US,1658888832
136,Kieta,-6.2167,155.6333,84.97,67,49,4.59,PG,1658888832
137,Puerto Escondido,15.85,-97.0667,79.63,73,100,4.61,MX,1658888833
138,Ketchikan,55.3422,-131.6461,72.07,73,0,14.97,US,1658888833
139,Tasiilaq,65.6145,-37.6368,39.36,94,100,4.05,GL,1658888834
140,Misratah,32.3754,15.0925,80.33,66,0,5.75,LY,1658888834
141,Hobyo,5.3505,48.5268,75.6,81,36,20.49,SO,1658888835
142,Zhangaözen,43.3,52.8,74.64,47,0,8.19,KZ,1658888835
143,Kapaa,22.0752,-159.319,85.98,73,100,17.27,US,1658888836
144,Chokurdakh,70.6333,147.9167,59.83,34,19,10.09,RU,1658888836
145,Torbay,47.6666,-52.7314,68.77,92,100,16.11,CA,1658888837
146,Bontang,0.1333,117.5,80.08,85,100,3.42,ID,1658888837
147,Gorontalo,0.5412,123.0595,81.91,85,92,3.71,ID,1658888837
148,Filingué,14.3521,3.3168,84.67,59,66,19.84,NE,1658888696
149,Bandarbeyla,9.4942,50.8122,77.86,68,11,26.51,SO,1658888838
150,Huarmey,-10.0681,-78.1522,62.65,86,76,10.04,PE,1658888838
151,Butaritari,3.0707,172.7902,82.08,75,6,18.75,KI,1658888839
152,Meridian,43.6121,-116.3915,99.45,22,0,11.5,US,1658888839
153,Haines Junction,60.7522,-137.5108,67.95,37,98,13.8,CA,1658888840
154,Tambura,5.6,27.4667,67.46,98,100,5.91,SS,1658888840
155,Rosarito,32.3333,-117.0333,78.24,73,15,10.54,MX,1658888840
156,Praia da Vitória,38.7333,-27.0667,72.75,94,0,5.68,PT,1658888841
157,Aksay,47.26,39.87,61.25,77,34,5.01,RU,1658888841
158,Agadez,19.75,10.25,84.0,16,10,12.35,NE,1658888842
159,Ellicott City,39.2673,-76.7983,74.68,88,100,1.01,US,1658888842
160,Omiš,43.4447,16.6886,78.73,81,41,6.51,HR,1658888842
161,Mount Gambier,-37.8333,140.7667,55.29,79,100,11.79,AU,1658888738
162,Halifax,44.6453,-63.5724,70.29,73,75,8.05,CA,1658888843
163,Port Augusta,-32.5,137.7667,58.21,49,100,5.88,AU,1658888843
164,Epe,6.5841,3.9834,74.14,95,86,4.94,NG,1658888844
165,Khromtau,50.2503,58.4347,62.06,85,82,11.92,KZ,1658888844
166,Teya,60.3778,92.6267,56.25,94,100,8.68,RU,1658888844
167,Yeppoon,-23.1333,150.7333,67.78,38,0,10.11,AU,1658888845
168,Aswān,24.0934,32.907,85.12,19,19,9.01,EG,1658888845
169,Igarka,67.4667,86.5833,61.34,52,0,1.03,RU,1658888846
170,Sirte,31.2089,16.5887,77.88,72,0,2.59,LY,1658888846
171,Bilibino,68.0546,166.4372,50.16,45,32,13.6,RU,1658888846
172,Trincomalee,8.5711,81.2335,80.49,79,100,6.35,LK,1658888847
173,Cabo San Lucas,22.8909,-109.9124,90.7,61,0,18.41,MX,1658888847
174,Hualmay,-11.0964,-77.6139,62.04,84,89,10.83,PE,1658888848
175,Burayevo,55.8407,55.4083,61.03,96,28,10.25,RU,1658888848
176,Naze,28.3667,129.4833,85.12,73,16,5.35,JP,1658888696
177,Bengkulu,-3.8004,102.2655,80.17,75,78,2.17,ID,1658888849
178,Minamata,32.2167,130.4,87.49,66,1,4.52,JP,1658888849
179,Jeypore,18.85,82.5833,76.37,84,98,2.53,IN,1658888850
180,Tuatapere,-46.1333,167.6833,45.9,95,100,3.8,NZ,1658888850
181,Bambous Virieux,-20.3428,57.7575,67.21,94,40,3.44,MU,1658888851
182,Iporá,-16.4419,-51.1178,66.79,35,0,5.1,BR,1658888851
183,Eydhafushi,5.1033,73.0708,81.52,77,100,15.73,MV,1658888852
184,Hvolsvollur,63.7533,-20.2243,53.4,96,100,12.33,IS,1658888852
185,Adrar,20.5022,-10.0711,96.3,19,9,10.2,MR,1658888852
186,Norman Wells,65.282,-126.8329,57.24,94,100,11.5,CA,1658888853
187,Quatre Cocos,-20.2078,57.7625,67.08,77,30,10.74,MU,1658888772
188,Poyarkovo,49.6,128.6833,87.26,53,41,5.61,RU,1658888853
189,Marystown,47.1666,-55.1483,64.85,100,100,5.66,CA,1658888854
190,Olafsvik,64.8945,-23.7142,53.33,97,100,15.59,IS,1658888854
191,Piltene,57.2243,21.6744,62.55,72,75,6.91,LV,1658888855
192,Mount Isa,-20.7333,139.5,71.37,28,0,14.97,AU,1658888855
193,Shimoda,34.6667,138.95,90.1,78,100,9.48,JP,1658888856
194,Arlit,18.7369,7.3853,93.61,11,15,8.12,NE,1658888856
195,Linhai,28.85,121.1167,94.93,42,2,2.95,CN,1658888856
196,Jalu,29.0331,21.5482,82.42,34,5,11.32,LY,1658888857
197,Chimbote,-9.0853,-78.5783,62.01,87,77,10.94,PE,1658888857
198,Kosh-Agach,50.0,88.6667,55.98,55,1,1.97,RU,1658888858
199,Guerrero Negro,27.9769,-114.0611,70.88,77,8,13.73,MX,1658888858
200,Abu Samrah,35.3029,37.1841,73.65,50,0,6.15,SY,1658888699
201,Salalah,17.0151,54.0924,75.29,100,100,6.91,OM,1658888859
202,Izhma,65.0083,53.9113,57.52,62,78,3.83,RU,1658888859
203,Yulara,-25.2406,130.9889,57.07,32,0,13.56,AU,1658888860
204,San Quintín,30.4833,-115.95,68.99,78,1,10.4,MX,1658888860
205,Shalyhyne,51.5717,34.1217,60.24,93,0,5.44,UA,1658888860
206,Susa,32.1942,48.2436,89.62,10,86,6.8,IR,1658888861
207,Gunjur,13.2019,-16.7339,78.87,89,40,3.44,GM,1658888861
208,Bagdarin,54.4333,113.6,62.96,97,99,9.15,RU,1658888861
209,Dickinson,29.4608,-95.0513,88.12,75,20,11.5,US,1658888862
210,Saint-Philippe,-21.3585,55.7679,65.79,85,58,11.79,RE,1658888862
211,Teknāf,20.8624,92.3058,83.39,73,18,1.99,BD,1658888863
212,Mount Holly,35.2982,-81.0159,81.34,88,75,3.44,US,1658888863
213,Padang,-0.9492,100.3543,78.85,73,100,1.07,ID,1658888863
214,Vanimo,-2.6741,141.3028,85.57,65,82,7.16,PG,1658888864
215,Upernavik,72.7868,-56.1549,37.92,88,96,8.48,GL,1658888864
216,Province of Trapani,37.8333,12.6667,78.89,73,0,4.61,IT,1658888865
217,Ambilobe,-13.2,49.05,66.52,84,94,3.83,MG,1658888865
218,Mar del Plata,-38.0023,-57.5575,54.09,98,100,5.75,AR,1658888865
219,Ca Mau,9.1769,105.15,80.82,85,100,5.35,VN,1658888866
220,Goundam,16.4145,-3.6708,94.71,17,100,7.85,ML,1658888866
221,Palmas Bellas,9.2319,-80.0867,78.26,91,100,1.92,PA,1658888867
222,Wanning,18.8003,110.3967,87.01,68,40,3.6,CN,1658888867
223,Oistins,13.0667,-59.5333,80.69,74,40,17.27,BB,1658888829
224,Lázaro Cárdenas,17.9583,-102.2,80.74,73,72,1.81,MX,1658888868
225,Belaya Gora,68.5333,146.4167,61.25,37,15,12.62,RU,1658888868
226,Morón,-34.6534,-58.6198,64.99,97,83,5.32,AR,1658888766
227,Mahébourg,-20.4081,57.7,67.24,94,40,3.44,MU,1658888618
228,Kolondiéba,11.0882,-6.8926,69.78,94,100,1.36,ML,1658888869
229,Maguling,6.095,124.4033,85.5,69,86,3.69,PH,1658888869
230,Yar-Sale,66.8333,70.8333,54.45,70,97,10.04,RU,1658888870
231,Ulaangom,49.9811,92.0667,63.05,49,85,4.43,MN,1658888870
232,Te Anau,-45.4167,167.7167,43.59,94,100,2.37,NZ,1658888871
233,Provideniya,64.3833,-173.3,51.91,66,0,20.13,RU,1658888871
234,Saldanha,-33.0117,17.9442,48.25,88,0,7.4,ZA,1658888871
235,Behbahān,30.5959,50.2417,86.5,21,100,5.3,IR,1658888872
236,Rundu,-17.9333,19.7667,54.63,42,82,6.33,NA,1658888872
237,Roald,62.5833,6.1333,53.76,93,40,3.44,NO,1658888873
238,Mogadishu,2.0371,45.3438,75.74,80,29,18.45,SO,1658888873
239,Along,28.1667,94.7667,78.84,89,99,1.25,IN,1658888873
240,San Fernando,15.0286,120.6898,89.33,64,84,4.32,PH,1658888874
241,Bolivar,37.6145,-93.4105,93.96,74,17,8.43,US,1658888874
242,Souillac,-20.5167,57.5167,66.58,94,40,3.44,MU,1658888875
243,Eupen,50.6295,6.0382,55.06,82,75,5.75,BE,1658888875
244,Makkaveyevo,51.7533,113.9454,63.55,88,100,2.37,RU,1658888875
245,Eureka,40.8021,-124.1637,62.2,80,47,4.0,US,1658888783
246,Palmer,42.1584,-72.3287,68.86,78,20,0.0,US,1658888876
247,San Andrés,12.5847,-81.7006,82.42,78,100,8.05,CO,1658888876
248,Hong Kong,22.2855,114.1577,91.96,73,11,8.99,HK,1658888860
249,Stykkisholmur,65.0757,-22.7297,52.2,93,100,12.06,IS,1658888877
250,Mackay,-21.15,149.2,76.68,56,0,17.72,AU,1658888877
251,Charters Towers,-20.1,146.2667,73.76,44,0,11.72,AU,1658888878
252,Deputatsky,69.3,139.9,59.34,50,61,11.88,RU,1658888854
253,Broken Hill,-31.95,141.4333,55.51,50,11,6.78,AU,1658888878
254,Kazanka,47.8462,32.8218,61.97,72,0,4.47,UA,1658888879
255,Jingjiang,32.0142,120.2625,87.01,65,2,2.48,CN,1658888879
256,Hay River,60.8156,-115.7999,67.98,56,20,12.66,CA,1658888636
257,Manta,-0.95,-80.7333,71.38,83,75,9.22,EC,1658888880
258,Srednekolymsk,67.45,153.6833,57.56,40,37,14.65,RU,1658888880
259,Udalguri,26.7667,92.1333,80.55,86,75,6.29,IN,1658888881
260,Adré,13.4667,22.2,72.46,83,95,9.8,TD,1658888881
261,Whitefish,48.4111,-114.3376,85.75,40,0,3.44,US,1658888881
262,Bruneck,46.7958,11.9364,61.11,94,100,1.95,IT,1658888882
263,Boende,-0.2167,20.8667,71.2,96,100,2.75,CD,1658888882
264,Aktau,43.65,51.2,66.78,59,23,5.01,KZ,1658888883
265,Yabēlo,4.8833,38.0833,53.82,76,62,7.96,ET,1658888883
266,Harper,4.375,-7.7169,75.04,82,97,8.41,LR,1658888884
267,Vrede,-27.4257,29.1659,43.54,49,6,3.58,ZA,1658888884
268,Hauterive,46.0901,3.4459,59.76,92,0,0.89,FR,1658888884
269,Alugan,12.2188,125.4808,86.5,65,100,2.53,PH,1658888885
270,Tiznit Province,29.5833,-9.5,81.54,33,0,2.08,MA,1658888885
271,Dawlatabad,36.4141,64.9053,85.37,27,0,7.47,AF,1658888886
272,Shelburne,44.0787,-80.2041,61.56,81,11,1.81,CA,1658888886
273,Abnūb,27.2696,31.1511,82.04,25,0,6.38,EG,1658888887
274,Portland,45.5234,-122.6762,100.81,35,0,6.91,US,1658888274
275,Clyde River,70.4692,-68.5914,39.43,100,100,2.3,CA,1658888888
276,Dingle,10.9995,122.6711,86.13,73,87,10.47,PH,1658888888
277,Lavrentiya,65.5833,-171.0,43.32,76,78,13.42,RU,1658888888
278,Douglas,41.3,-96.167,75.27,91,75,6.91,US,1658888850
279,Kruisfontein,-34.0033,24.7314,51.89,78,80,17.81,ZA,1658888889
280,Aklavik,68.2191,-135.0107,64.96,32,100,20.49,CA,1658888889
281,Saskylakh,71.9167,114.0833,77.2,53,36,10.92,RU,1658888890
282,Eyl,7.9803,49.8164,77.43,67,22,23.15,SO,1658888890
283,Kavieng,-2.5744,150.7967,85.41,63,50,12.62,PG,1658888891
284,Elko,41.0002,-115.5012,92.05,6,91,11.99,US,1658888891
285,Gabú,12.2833,-14.2167,73.62,97,92,5.5,GW,1658888892
286,Atar,20.5169,-13.0499,90.99,41,100,14.97,MR,1658888892
287,Vlasikha,53.2972,83.5742,67.05,63,40,4.47,RU,1658888892
288,Bathsheba,13.2167,-59.5167,81.21,88,40,17.27,BB,1658888893
289,Pyapon,16.2833,95.6833,84.85,73,100,5.1,MM,1658888893
290,Athabasca,54.7169,-113.2854,75.61,58,32,4.99,CA,1658888894
291,Bandundu Province,-3.3167,17.3667,74.84,67,80,4.83,CD,1658888894
292,Zliten,32.4674,14.5687,77.86,61,0,4.79,LY,1658888894
293,Rafaela,-31.2503,-61.4867,70.99,53,52,3.0,AR,1658888895
294,Klyuchevskiy,53.5317,119.4519,68.14,88,100,9.53,RU,1658888895
295,Raja,8.4596,25.678,68.18,97,100,5.44,SS,1658888896
296,Senno,59.5336,33.9167,65.08,74,96,4.5,RU,1658888896
297,Timrå,62.487,17.3257,56.68,88,100,6.91,SE,1658888896
298,Half Moon Bay,37.4636,-122.4286,75.02,77,100,18.41,US,1658888897
299,Āron,24.3833,77.4167,74.17,92,100,7.76,IN,1658888897
300,Coahuayana Viejo,18.7333,-103.6833,79.68,80,100,2.3,MX,1658888898
301,Fairbanks,64.8378,-147.7164,61.48,55,75,17.27,US,1658888898
302,Mil'kovo,54.7167,158.6167,73.09,43,100,1.32,RU,1658888899
303,Chervona Sloboda,49.3789,32.1464,63.1,81,0,1.61,UA,1658888899
304,Malbork,54.0359,19.0266,55.11,91,26,7.23,PL,1658888899
305,Tarime,-1.35,34.3667,65.21,52,100,4.25,TZ,1658888900
306,Jupiter,26.9342,-80.0942,84.04,92,94,4.0,US,1658888900
307,Honningsvåg,70.9821,25.9704,53.35,94,100,0.0,NO,1658888901
308,Sibolga,1.7427,98.7792,80.89,76,97,1.19,ID,1658888901
309,Ust-Nera,64.5667,143.2,67.68,64,99,6.76,RU,1658888901
310,Kidal,18.4411,1.4078,94.14,9,21,6.98,ML,1658888770
311,Lillooet,50.6856,-121.942,94.91,29,5,3.22,CA,1658888902
312,Beaverlodge,55.2166,-119.4361,81.75,55,92,2.19,CA,1658888902
313,Bārmer,25.75,71.3833,79.16,81,71,8.88,IN,1658888903
314,Poya,-21.35,165.15,78.55,52,0,2.44,NC,1658888903
315,Margate,51.3813,1.3862,61.3,77,100,1.01,GB,1658888904
316,Bautzen,51.1833,14.4333,64.06,82,91,1.99,DE,1658888883
317,Quzhou,28.9594,118.8686,91.72,55,53,2.08,CN,1658888904
318,Tiksi,71.6872,128.8694,54.19,74,100,2.28,RU,1658888629
319,George Town,5.4112,100.3354,85.95,75,20,9.22,MY,1658888773
320,Barranca,-10.75,-77.7667,61.2,85,70,9.06,PE,1658888905
321,Hasaki,35.7333,140.8333,93.29,81,73,17.92,JP,1658888906
322,Venado Tuerto,-33.7456,-61.9688,61.77,95,33,4.7,AR,1658888906
323,Port Macquarie,-31.4333,152.9167,62.89,45,0,14.56,AU,1658888907
324,Nantucket,41.2835,-70.0995,71.71,83,0,5.75,US,1658888681
325,The Valley,18.217,-63.0578,82.26,78,3,17.07,AI,1658888907
326,Asău,46.4333,26.4,69.96,73,9,5.08,RO,1658888908
327,Buraidah,26.326,43.975,84.65,18,100,7.05,SA,1658888908
328,Freeport,40.6576,-73.5832,79.18,62,0,13.8,US,1658888665
329,Ayan,56.45,138.1667,60.57,80,100,11.32,RU,1658888909
330,Karasjok,69.4719,25.5112,58.55,98,100,7.16,NO,1658888909
331,Yumen,40.2833,97.2,84.9,11,2,10.13,CN,1658888910
332,Miranda,3.2499,-76.2281,68.13,93,60,5.03,CO,1658888910
333,Prado,-17.3411,-39.2208,69.58,82,5,7.18,BR,1658888910
334,Baykit,61.67,96.37,64.15,93,100,3.11,RU,1658888911
335,Skibbereen,51.55,-9.2667,54.1,73,100,2.15,IE,1658888911
336,Plettenberg Bay,-34.0527,23.3716,57.11,72,91,10.63,ZA,1658888912
337,Taoudenni,22.6783,-3.9836,96.33,11,0,10.04,ML,1658888912
338,Beringovskiy,63.05,179.3167,46.36,96,100,11.61,RU,1658888913
339,Ouésso,1.6136,16.0517,69.06,96,71,2.8,CG,1658888913
340,Vung Tau,10.346,107.0843,82.04,76,97,3.0,VN,1658888913
341,Cabedelo,-6.9811,-34.8339,72.27,86,46,9.64,BR,1658888914
342,Merrill,45.1805,-89.6835,72.03,96,100,3.44,US,1658888767
343,Ilulissat,69.2167,-51.1,42.82,93,100,5.75,GL,1658888844
344,Saint-Louis,16.3333,-15.0,86.74,61,86,11.18,SN,1658888914
345,Nioro,13.35,-15.75,76.39,92,93,8.84,GM,1658888915
346,Panambi,-28.2925,-53.5017,63.52,89,3,6.8,BR,1658888915
347,Soe,-9.8607,124.284,75.09,49,50,9.78,ID,1658888846
348,Bitung,1.4451,125.1824,90.45,75,100,10.74,ID,1658888916
349,Ewo,-0.8725,14.8206,71.56,75,32,5.5,CG,1658888916
350,Amapá,1.0,-52.0,72.0,99,100,1.88,BR,1658888917
351,Latung,5.5,120.8833,83.08,74,100,6.22,PH,1658888917
352,Ierapetra,35.01,25.7353,82.15,34,0,8.99,GR,1658888918
353,Esim,4.8699,-2.2405,75.61,87,87,10.92,GH,1658888918
354,Charagua,-19.8,-63.2167,74.07,57,0,11.7,BO,1658888918
355,Tanete,-3.9443,119.7848,84.52,67,76,13.29,ID,1658888919
356,Kaka,37.3482,59.6143,84.7,40,1,4.16,TM,1658888919
357,Karratha,-20.7377,116.8463,76.53,27,1,15.52,AU,1658888920
358,Vavoua,7.3819,-6.4778,70.77,95,100,4.88,CI,1658888920
359,Nuevitas,21.5453,-77.2644,80.28,85,100,11.18,CU,1658888921
360,Vangaindrano,-23.35,47.6,64.47,88,34,3.47,MG,1658888921
361,Elizabeth City,36.2946,-76.2511,77.02,95,0,5.75,US,1658888921
362,North Bend,43.4065,-124.2243,71.24,85,0,10.36,US,1658888622
363,Myitkyina,25.3833,97.4,81.14,83,66,0.85,MM,1658888922
364,Tabuk,17.4189,121.4443,84.92,73,100,3.4,PH,1658888922
365,Baculin,7.4525,126.5842,85.37,70,100,4.92,PH,1658888923
366,Saint Anthony,45.0205,-93.218,73.11,86,75,8.05,US,1658888923
367,Isangel,-19.55,169.2667,82.51,78,75,4.61,VU,1658888924
368,Amazar,53.858,120.875,67.69,94,100,4.56,RU,1658888924
369,Nirmal,19.1,78.35,76.24,88,100,3.06,IN,1658888924
370,Wilhelmshaven,53.5167,8.1333,59.0,72,90,9.33,DE,1658888925
371,Dorado,18.4588,-66.2677,82.29,88,3,11.41,PR,1658888834
372,Gadwāl,16.2333,77.8,75.79,84,78,2.01,IN,1658888925
373,Evensk,61.95,159.2333,63.07,62,13,6.33,RU,1658888926
374,Dafeng,23.4517,108.5881,88.77,63,6,4.65,CN,1658888926
375,Woodward,36.4337,-99.3904,96.03,30,0,13.8,US,1658888886
376,Kenai,60.5544,-151.2583,64.02,61,0,14.97,US,1658888927
377,Port Lincoln,-34.7333,135.8667,58.64,61,100,16.6,AU,1658888927
378,Mehrān,33.1222,46.1646,88.74,9,0,9.13,IR,1658888927
379,Paamiut,61.994,-49.6678,41.68,95,37,16.89,GL,1658888928
380,Teahupoo,-17.8333,-149.2667,75.16,82,83,13.04,PF,1658888928
381,Segezha,63.7415,34.3222,60.76,81,100,8.77,RU,1658888929
382,Rawson,-43.3002,-65.1023,45.18,95,100,9.26,AR,1658888929
383,Khovd,48.0056,91.6419,64.0,33,4,4.27,MN,1658888929
384,Bosaso,11.2842,49.1816,88.97,36,29,24.23,SO,1658888930
385,Billings Metropolitan Area,45.7833,-108.5007,81.28,46,20,8.05,US,1658888930
386,Lompoc,34.6391,-120.4579,64.53,76,0,12.66,US,1658888931
387,Qaqortoq,60.7167,-46.0333,42.91,93,10,3.42,GL,1658888931
388,Tual,-5.6667,132.75,79.23,80,53,20.96,ID,1658888932
389,Pekan,3.4836,103.3996,84.31,79,78,7.56,MY,1658888932
390,Necochea,-38.5473,-58.7368,51.87,95,100,3.91,AR,1658888933
391,Moïssala,8.3404,17.7663,70.32,97,86,2.95,TD,1658888933
392,Novominskaya,46.3163,38.9586,63.86,81,0,5.88,RU,1658888934
393,Omboué,-1.5746,9.2618,70.75,90,85,5.03,GA,1658888934
394,Humlebæk,55.9618,12.5341,55.92,90,98,11.99,DK,1658888934
395,Bonthe,7.5264,-12.505,75.92,82,100,6.58,SL,1658888935
396,Marzuq,14.4,46.4667,80.83,45,100,5.86,YE,1658888935
397,Emboscada,-25.15,-57.35,78.6,47,0,5.75,PY,1658888936
398,Eilat,29.5581,34.9482,82.24,34,0,11.5,IL,1658888936
399,Mayumba,-3.432,10.6554,68.18,93,21,3.22,GA,1658888936
400,Mahon,39.8885,4.2658,73.96,78,0,4.61,ES,1658888937
401,West Wendover,40.7391,-114.0733,94.21,8,0,9.22,US,1658888937
402,San Francisco,37.7749,-122.4194,76.1,86,20,18.41,US,1658888473
403,Andenes,69.3143,16.1194,51.93,100,100,16.11,NO,1658888938
404,Lom Sak,16.7798,101.2422,85.89,79,20,0.0,TH,1658888938
405,Pangnirtung,66.1451,-65.7125,46.26,81,32,2.35,CA,1658888938
406,Joshīmath,30.5667,79.5667,72.16,91,95,1.83,IN,1658888939
407,Sabla,12.7525,4.7077,80.44,72,81,14.25,NG,1658888939
408,Kalmunai,7.4167,81.8167,80.13,82,98,7.87,LK,1658888940
409,Santa Vitória do Palmar,-33.5189,-53.3681,58.59,96,26,6.35,BR,1658888940
410,Ust'-Koksa,50.2696,85.6108,59.95,66,32,0.72,RU,1658888940
411,Alofi,-19.0595,-169.9187,78.69,89,75,13.8,NU,1658888941
412,Araouane,18.9048,-3.5265,95.72,11,98,9.42,ML,1658888941
413,Orbetello,42.4408,11.2196,71.6,100,0,2.3,IT,1658888942
414,Swift Current,50.2834,-107.8014,67.01,55,40,12.66,CA,1658888942
415,Sørland,67.667,12.6934,51.66,85,100,26.51,NO,1658888943
416,Muzhi,65.3667,64.6667,56.57,64,88,14.07,RU,1658888943
417,Anadyr,64.75,177.4833,48.7,93,75,15.66,RU,1658888943
418,Conceição do Araguaia,-8.2578,-49.2647,72.03,40,100,1.57,BR,1658888944
419,Malé,4.1748,73.5089,82.35,83,75,14.97,MV,1658888724
420,San Ramon,37.7799,-121.978,78.42,60,0,14.97,US,1658888945
421,Tabuny,52.7773,78.7896,74.41,42,100,7.72,RU,1658888945
422,Lüderitz,-26.6481,15.1594,54.0,77,0,5.17,NA,1658888945
423,Grindavik,63.8424,-22.4338,55.35,100,100,17.27,IS,1658888946
424,Mukhtolovo,55.4644,43.1953,63.27,93,1,4.65,RU,1658888946
425,Novodugino,55.6305,34.2842,60.4,90,0,0.45,RU,1658888947
426,Sitka,57.0531,-135.33,62.49,77,100,10.36,US,1658888947
427,Moberly,39.4184,-92.4382,73.92,89,75,5.75,US,1658888948
428,Katsuura,35.1333,140.3,83.19,81,62,15.12,JP,1658888759
429,Xining,36.6167,101.7667,62.55,56,55,3.58,CN,1658888948
430,Mokhsogollokh,61.4681,128.9203,81.01,38,22,3.51,RU,1658888949
431,Kangaatsiaq,68.3065,-53.4641,40.5,95,100,8.95,GL,1658888949
432,Waipawa,-41.4122,175.5153,49.51,90,100,5.59,NZ,1658888949
433,Pisco,-13.7,-76.2167,60.85,88,75,4.61,PE,1658888950
434,San Cristobal,7.7669,-72.225,69.98,98,97,2.42,VE,1658888778
435,Pitimbu,-7.4706,-34.8086,72.19,84,76,10.29,BR,1658888951
436,Marquette,46.5333,-87.6335,69.24,72,100,4.72,US,1658888951
437,Council Bluffs,41.2619,-95.8608,76.17,91,100,8.05,US,1658888951
438,La Providencia,28.7167,-111.5833,90.97,48,83,11.43,MX,1658888952
439,Uga,5.9358,7.0793,71.44,98,100,3.15,NG,1658888952
440,Guilin,25.2819,110.2864,89.71,64,96,4.79,CN,1658888953
441,Macas,-2.3167,-78.1167,66.43,98,100,2.33,EC,1658888953
442,Husavik,66.0449,-17.3389,52.12,81,100,6.38,IS,1658888953
443,Naryan-Mar,67.6713,53.087,56.25,70,86,10.49,RU,1658888954
444,San Policarpo,12.1791,125.5072,86.22,66,100,2.91,PH,1658888954
445,Wilmington,34.2257,-77.9447,82.9,80,0,11.5,US,1658888258
446,Kamaishi,39.2667,141.8833,79.79,82,51,4.76,JP,1658888955
447,Ljungby,56.8332,13.9408,52.21,87,100,12.03,SE,1658888955
448,Laela,-8.5667,32.05,51.31,87,39,3.2,TZ,1658888956
449,Moose Factory,51.2585,-80.6094,62.6,82,75,8.05,CA,1658888956
450,Magomeni,-6.8,39.25,70.75,86,20,6.17,TZ,1658888957
451,Cap Malheureux,-19.9842,57.6142,67.46,76,9,4.0,MU,1658888957
452,Zhigansk,66.7697,123.3711,74.79,54,23,4.23,RU,1658888958
453,Kaplice,48.7385,14.4963,61.77,92,20,2.57,CZ,1658888958
454,Leningradskiy,69.3833,178.4167,36.09,93,100,5.64,RU,1658888958
455,Inírida,3.8653,-67.9239,74.68,92,100,2.28,CO,1658888959
456,Aranos,-24.1333,19.1167,59.68,20,90,4.59,NA,1658888959
457,Vodnyy,63.5046,53.4095,57.0,59,100,3.89,RU,1658888960
458,Bulgan,48.8125,103.5347,57.36,72,38,2.62,MN,1658888960
459,Dolores,-36.3132,-57.6792,59.47,99,100,2.82,AR,1658888960
460,Marsh Harbour,26.5412,-77.0636,82.74,78,100,15.68,BS,1658888961
461,Saint-Pierre,-21.3393,55.4781,66.9,66,0,6.91,RE,1658888961
462,Chuguyevka,44.1653,133.8633,84.58,56,4,2.64,RU,1658888851
463,Tabou,4.423,-7.3528,74.98,83,97,8.81,CI,1658888962
464,Banda Aceh,5.5577,95.3222,81.19,76,100,5.59,ID,1658888962
465,Nabire,-3.3667,135.4833,83.19,70,99,2.21,ID,1658888963
466,Sindor,62.8629,51.8905,54.93,63,95,2.51,RU,1658888963
467,Eyemouth,55.8713,-2.0901,51.24,78,78,6.33,GB,1658888964
468,Teguise,29.0605,-13.564,73.62,69,0,27.63,ES,1658888798
469,Hwange,-18.3693,26.5019,56.39,52,0,3.09,ZW,1658888964
470,Bobo-Dioulasso,11.1771,-4.2979,72.05,88,20,8.05,BF,1658888965
471,Calvinia,-31.4707,19.776,44.28,95,14,3.85,ZA,1658888965
472,Kavadarci,41.4331,22.0119,66.78,64,0,2.04,MK,1658888965
473,Landerneau,48.4525,-4.2525,56.16,93,20,3.44,FR,1658888966
474,Yambio,4.5721,28.3955,67.14,99,100,3.27,SS,1658888966
475,Carandaí,-20.9536,-43.8064,53.15,91,0,5.3,BR,1658888686
476,Pochutla,15.7432,-96.4661,75.02,91,100,2.89,MX,1658888967
477,Podolínec,49.2587,20.536,55.98,88,0,4.32,SK,1658888967
478,Jijiga,9.35,42.8,60.57,64,36,19.04,ET,1658888968
479,Kahului,20.8947,-156.47,84.22,65,40,25.32,US,1658888687
480,Boñgalon,16.0002,120.159,86.9,68,8,2.68,PH,1658888968
481,Quelimane,-17.8786,36.8883,60.75,100,0,2.3,MZ,1658888969
482,Naszály,47.7033,18.2575,59.13,90,3,3.2,HU,1658888969
483,Kyra,49.5776,111.9753,54.34,96,100,7.25,RU,1658888969
484,Kichera,55.9375,110.0997,59.58,91,100,4.38,RU,1658888970
485,Longjiang,47.3303,123.1836,79.34,71,100,10.13,CN,1658888970
486,Shorewood,41.52,-88.2017,75.67,87,40,6.91,US,1658888971
487,Pilar,-9.5972,-35.9567,73.33,95,100,3.69,BR,1658888971
488,Storforshei,66.4043,14.5233,53.38,87,100,5.75,NO,1658888971
489,Hamilton,39.1834,-84.5333,74.71,90,75,0.0,US,1658888674
490,Bose,45.4612,8.0137,67.59,92,13,6.6,IT,1658888972
491,Palana,59.1167,159.9667,54.3,73,88,23.67,RU,1658888972
492,Pyrzyce,53.1462,14.8926,54.95,81,40,7.18,PL,1658888973
493,Rio Grande,-32.035,-52.0986,60.94,97,55,8.55,BR,1658888973
494,Tuzha,57.6062,47.936,57.54,81,73,5.1,RU,1658888974
495,Wattegama,6.7989,81.4808,77.83,85,99,0.85,LK,1658888974
496,Mehamn,71.0357,27.8492,57.11,96,100,6.49,NO,1658888975
497,Laguna,38.421,-121.4238,94.44,41,0,12.66,US,1658888975
498,Tulun,54.5611,100.5792,63.05,58,85,4.76,RU,1658888975
499,Gizo Government Station,-8.103,156.8419,84.09,68,64,3.06,SB,1658888976
500,Bowen,-20.0167,148.2333,71.46,61,0,10.4,AU,1658888976
501,Santarém,-2.4431,-54.7083,75.33,94,40,2.3,BR,1658888977
502,Trairi,-3.2778,-39.2689,77.5,78,97,11.5,BR,1658888972
503,Jalalpur Jattan,32.6374,74.2183,84.07,84,75,0.0,PK,1658888977
504,Iquique,-20.2208,-70.1431,59.04,78,63,2.84,CL,1658888835
505,Pleshanovo,52.8333,53.4833,66.36,84,87,3.18,RU,1658888978
506,Salinópolis,-0.6136,-47.3561,78.67,83,97,10.27,BR,1658888978
507,Kavaratti,10.5669,72.642,81.37,76,100,16.58,IN,1658888979
508,Porkhov,57.765,29.5561,60.85,88,100,4.32,RU,1658888979
509,Dhidhdhoo,6.8833,73.1,81.1,79,78,14.34,MV,1658888979
510,Dillingen,49.35,6.7333,65.1,68,100,3.58,DE,1658888980
511,Belyy Yar,53.6039,91.3903,59.86,82,83,2.24,RU,1658888980
512,Huanren,41.2647,125.3667,86.04,60,8,4.09,CN,1658888981
513,Gouré,13.9835,10.2704,83.01,63,67,17.54,NE,1658888981
514,Mpika,-11.8343,31.4529,50.36,75,2,7.47,ZM,1658888981
515,Tarakan,3.3,117.6333,81.01,75,100,4.25,ID,1658888705
516,College,64.8569,-147.8028,61.47,54,75,17.27,US,1658888972
517,Manono,-7.3,27.4167,70.48,46,89,4.59,CD,1658888982
518,Wad Medani,14.4012,33.5199,75.94,77,90,22.26,SD,1658888982
519,Gazli,40.1333,63.45,84.13,33,77,17.07,UZ,1658888983
520,Vilcún,-38.65,-72.2333,45.34,90,50,3.6,CL,1658888983
521,Loreto,22.2667,-101.9667,68.79,56,100,11.07,MX,1658888984
522,Lorengau,-2.0226,147.2712,85.08,71,19,10.36,PG,1658888977
523,Faanui,-16.4833,-151.75,78.62,72,24,8.97,PF,1658888984
524,Zeya,53.75,127.2667,84.27,49,72,5.5,RU,1658888985
525,San Juan,-31.5375,-68.5364,56.26,77,86,11.12,AR,1658888985
526,Tirumullaivāsal,11.2333,79.8333,83.8,69,0,4.14,IN,1658888986
527,Copacabana,6.3463,-75.5089,66.72,99,45,2.3,CO,1658888986
528,Kloulklubed,7.0419,134.2556,82.9,71,20,5.5,PW,1658888845
529,Edgecumbe,-37.9833,176.8333,56.79,77,89,10.45,NZ,1658888987
530,Nortelândia,-14.4547,-56.8028,73.35,40,43,3.4,BR,1658888987
531,La Paz,-16.5,-68.15,37.38,93,20,6.91,BO,1658888987
532,Kaitangata,-46.2817,169.8464,45.72,97,100,9.26,NZ,1658888976
533,Gaziantep,37.0594,37.3825,75.13,33,0,1.14,TR,1658888988
534,Puksoozero,62.5903,40.6066,58.55,87,15,5.59,RU,1658888989
535,Russell,32.3502,-85.1999,83.8,65,79,3.51,US,1658888989
536,Jaswantnagar,26.8786,78.9028,86.36,64,61,6.29,IN,1658888989
537,Vondrozo,-22.8167,47.2833,56.08,96,8,1.92,MG,1658888990
538,Tela,15.7833,-87.45,77.65,89,92,5.53,HN,1658888990
539,Puerto del Rosario,28.5004,-13.8627,76.75,65,0,5.75,ES,1658888828
540,Lexington,37.9887,-84.4777,76.89,90,100,0.0,US,1658888953
541,Longview,32.5007,-94.7405,91.65,52,0,5.75,US,1658888988
542,Maceió,-9.6658,-35.7353,74.64,88,100,6.91,BR,1658888967
543,Cayenne,4.9333,-52.3333,76.08,1,0,2.3,GF,1658888991
544,Byron Bay,-28.65,153.6167,63.72,41,0,9.95,AU,1658888992
545,Ancud,-41.8697,-73.8203,48.22,94,83,8.14,CL,1658888847
546,Egvekinot,66.3167,-179.1667,44.91,60,100,2.28,RU,1658888992
547,Muncar,-8.4333,114.3333,79.92,72,52,6.53,ID,1658888993
548,Vostok,46.4856,135.8833,77.97,57,39,5.39,RU,1658888993
549,Keti Bandar,24.1447,67.4497,81.99,85,100,10.36,PK,1658888993
550,Tāndā,26.55,82.65,85.8,68,96,8.81,IN,1658888994
551,Korla,41.7597,86.1469,90.25,15,5,3.38,CN,1658888994
552,Hambantota,6.1241,81.1185,77.34,100,20,0.0,LK,1658888995
553,Vila Franca do Campo,37.7167,-25.4333,74.19,95,28,4.12,PT,1658888995
554,Chumikan,54.7183,135.315,65.05,67,10,3.18,RU,1658888996
555,Menongue,-14.6585,17.691,50.47,50,2,4.94,AO,1658888957
556,Guhāgar,17.4842,73.1929,78.35,85,81,1.92,IN,1658888996
557,Mariāni,26.6667,94.3333,80.37,86,51,4.34,IN,1658888996
558,Tīkamgarh,24.745,78.8333,76.5,90,100,8.41,IN,1658888997
559,Chaihe,44.7667,129.7,81.36,73,11,1.3,CN,1658888997
560,Tazovsky,67.4667,78.7,51.31,75,20,8.14,RU,1658888998
561,Tangjiazhuang,39.7333,118.45,83.43,65,72,8.46,CN,1658888998
562,Broome,42.2506,-75.833,64.67,85,9,2.35,US,1658888998
563,Verkhnyaya Inta,65.9811,60.3094,50.95,75,95,10.94,RU,1658888999
564,Touros,-5.1989,-35.4608,73.94,86,1,10.18,BR,1658888868
565,Noyabrsk,63.1994,75.4507,56.61,70,85,16.24,RU,1658888999
566,Itoman,26.1247,127.6694,89.98,75,20,12.66,JP,1658888770
567,La Libertad,-2.2333,-80.9,68.97,86,98,9.69,EC,1658889000
568,Richards Bay,-28.783,32.0377,54.27,83,0,6.73,ZA,1658889000
569,Launceston,-41.45,147.1667,57.34,83,21,4.61,AU,1658889001
570,Talara,-4.5772,-81.2719,64.85,87,100,19.6,PE,1658888981
571,Ol'ga,43.7444,135.2892,79.36,66,40,6.22,RU,1658889002
572,Kawambwa,-9.7915,29.0791,54.95,67,78,5.61,ZM,1658889003
573,Kapit,2.0167,112.9333,84.06,72,100,2.77,MY,1658889003
574,Haimen,23.1935,116.6142,89.49,65,0,6.49,CN,1658889004
575,Abadiânia,-16.2042,-48.7069,63.52,53,0,3.78,BR,1658888837
576,Biak,-0.9131,122.8766,75.78,92,99,6.6,ID,1658889005
577,Mopipi,-21.1833,24.8833,53.83,63,0,9.42,BW,1658889005
578,Angoche,-16.2325,39.9086,71.4,71,100,10.69,MZ,1658888771
579,Hlipiceni,47.6,27.15,71.24,76,62,9.57,RO,1658889006
580,Mayya,61.7333,130.2811,79.92,37,60,1.25,RU,1658889006
